[{"teams":8,"label":"New York","city":"New York***","latitude":40.66,"longitude":-73.94,"pop_2021":8467513,"mlb":"New York Mets, New York Yankees","nba":"Brooklyn Nets, New York Knicks","nfl":"New York Giants, New York Jets","nhl":"New York Islanders, New York Rangers"},{"teams":6,"label":"Los Angeles","city":"Los Angeles**","latitude":34.02,"longitude":-118.41,"pop_2021":3849297,"mlb":"Los Angeles Dodgers","nba":"Los Angeles Clippers, Los Angeles Lakers","nfl":"Los Angeles Chargers, Los Angeles Rams","nhl":"Los Angeles Kings"},{"teams":3,"label":"Toronto","city":"Toronto","latitude":43.6532,"longitude":-79.3832,"pop_2021":2794356,"mlb":"Toronto Blue Jays","nba":"Toronto Raptors","nhl":"Toronto Maple Leafs"},{"teams":5,"label":"Chicago","city":"Chicago","latitude":41.84,"longitude":-87.68,"pop_2021":2696555,"mlb":"Chicago Cubs, Chicago White Sox","nba":"Chicago Bulls","nfl":"Chicago Bears","nhl":"Chicago Blackhawks"},{"teams":3,"label":"Houston","city":"Houston","latitude":29.79,"longitude":-95.39,"pop_2021":2288250,"mlb":"Houston Astros","nba":"Houston Rockets","nfl":"Houston Texans"},{"teams":1,"label":"Montreal","city":"Montreal","latitude":45.5017,"longitude":-73.5673,"pop_2021":1762949,"nhl":"Montreal Canadiens"},{"teams":4,"label":"Phoenix","city":"Phoenix**","latitude":33.57,"longitude":-112.09,"pop_2021":1624569,"mlb":"Arizona Diamondbacks","nba":"Phoenix Suns","nfl":"Arizona Cardinals","nhl":"Arizona Coyotes"},{"teams":4,"label":"Philadelphia","city":"Philadelphia","latitude":40.01,"longitude":-75.13,"pop_2021":1576251,"mlb":"Philadelphia Phillies","nba":"Philadelphia 76ers","nfl":"Philadelphia Eagles","nhl":"Philadelphia Flyers"},{"teams":1,"label":"San Antonio","city":"San Antonio","latitude":29.46,"longitude":-98.52,"pop_2021":1451853,"nba":"San Antonio Spurs"},{"teams":1,"label":"San Diego","city":"San Diego","latitude":32.81,"longitude":-117.14,"pop_2021":1381611,"mlb":"San Diego Padres"},{"teams":1,"label":"Calgary","city":"Calgary","latitude":51.0447,"longitude":-114.0719,"pop_2021":1306784,"nhl":"Calgary Flames"},{"teams":4,"label":"Dallas","city":"Dallas**","latitude":32.79,"longitude":-96.77,"pop_2021":1288457,"mlb":"Texas Rangers","nba":"Dallas Mavericks","nfl":"Dallas Cowboys","nhl":"Dallas Stars"},{"teams":1,"label":"Ottawa","city":"Ottawa","latitude":45.4215,"longitude":-75.6972,"pop_2021":1017449,"nhl":"Ottawa Senators"},{"teams":1,"label":"Edmonton","city":"Edmonton","latitude":53.5444,"longitude":-113.4909,"pop_2021":1010899,"nhl":"Edmonton Oilers"},{"teams":1,"label":"San Jose","city":"San Jose","latitude":37.3,"longitude":-121.81,"pop_2021":983489,"nhl":"San Jose Sharks"},{"teams":0,"label":"Austin","city":"Austin","latitude":30.3,"longitude":-97.75,"pop_2021":964177},{"teams":1,"label":"Jacksonville","city":"Jacksonville","latitude":30.34,"longitude":-81.66,"pop_2021":954614,"nfl":"Jacksonville Jaguars"},{"teams":0,"label":"Fort Worth","city":"Fort Worth","latitude":32.78,"longitude":-97.35,"pop_2021":935508},{"teams":1,"label":"Columbus","city":"Columbus","latitude":39.99,"longitude":-82.99,"pop_2021":906528,"nhl":"Columbus Blue Jackets"},{"teams":2,"label":"Indianapolis","city":"Indianapolis","latitude":39.78,"longitude":-86.15,"pop_2021":882039,"nba":"Indiana Pacers","nfl":"Indianapolis Colts"},{"teams":2,"label":"Charlotte","city":"Charlotte","latitude":35.21,"longitude":-80.83,"pop_2021":879709,"nba":"Charlotte Hornets","nfl":"Carolina Panthers"},{"teams":3,"label":"San Francisco","city":"San Francisco*","latitude":37.73,"longitude":-123.03,"pop_2021":815201,"mlb":"San Francisco Giants","nba":"Golden State Warriors","nfl":"San Francisco 49ers"},{"teams":1,"label":"Winnipeg","city":"Winnipeg","latitude":49.8951,"longitude":-97.1384,"pop_2021":749607,"nhl":"Winnipeg Jets"},{"teams":3,"label":"Seattle","city":"Seattle","latitude":47.62,"longitude":-122.35,"pop_2021":733919,"mlb":"Seattle Mariners","nfl":"Seattle Seahawks","nhl":"Seattle Kraken"},{"teams":4,"label":"Denver","city":"Denver","latitude":39.76,"longitude":-104.88,"pop_2021":711463,"mlb":"Colorado Rockies","nba":"Denver Nuggets","nfl":"Denver Broncos","nhl":"Colorado Avalanche"},{"teams":1,"label":"Oklahoma City","city":"Oklahoma City","latitude":35.47,"longitude":-97.51,"pop_2021":687725,"nba":"Oklahoma City Thunder"},{"teams":2,"label":"Nashville","city":"Nashville","latitude":36.17,"longitude":-86.79,"pop_2021":678851,"nfl":"Tennessee Titans","nhl":"Nashville Predators"},{"teams":0,"label":"El Paso","city":"El Paso","latitude":31.85,"longitude":-106.43,"pop_2021":678415},{"teams":4,"label":"Washington","city":"Washington*","latitude":38.9,"longitude":-77.02,"pop_2021":670050,"mlb":"Washington Nationals","nba":"Washington Wizards","nfl":"Washington Commanders","nhl":"Washington Capitals"},{"teams":1,"label":"Vancouver","city":"Vancouver","latitude":49.2827,"longitude":-123.1207,"pop_2021":662248,"nhl":"Vancouver Canucks"},{"teams":4,"label":"Boston","city":"Boston*","latitude":42.34,"longitude":-71.02,"pop_2021":654776,"mlb":"Boston Red Sox","nba":"Boston Celtics","nfl":"New England Patriots","nhl":"Boston Bruins"},{"teams":2,"label":"Las Vegas","city":"Las Vegas","latitude":36.23,"longitude":-115.26,"pop_2021":646790,"nfl":"Las Vegas Raiders","nhl":"Vegas Golden Knights"},{"teams":1,"label":"Portland","city":"Portland","latitude":45.54,"longitude":-122.65,"pop_2021":641162,"nba":"Portland Trail Blazers"},{"teams":4,"label":"Detroit","city":"Detroit","latitude":42.38,"longitude":-83.1,"pop_2021":632464,"mlb":"Detroit Tigers","nba":"Detroit Pistons","nfl":"Detroit Lions","nhl":"Detroit Red Wings"},{"teams":0,"label":"Louisville","city":"Louisville","latitude":38.17,"longitude":-85.65,"pop_2021":628594},{"teams":1,"label":"Memphis","city":"Memphis","latitude":35.11,"longitude":-89.97,"pop_2021":628127,"nba":"Memphis Grizzlies"},{"teams":2,"label":"Baltimore","city":"Baltimore","latitude":39.3,"longitude":-76.61,"pop_2021":576498,"mlb":"Baltimore Orioles","nfl":"Baltimore Ravens"},{"teams":2,"label":"Milwaukee","city":"Milwaukee","latitude":43.06,"longitude":-87.97,"pop_2021":569330,"mlb":"Milwaukee Brewers","nba":"Milwaukee Bucks"},{"teams":0,"label":"Albuquerque","city":"Albuquerque","latitude":35.1,"longitude":-106.65,"pop_2021":562599},{"teams":0,"label":"Fresno","city":"Fresno","latitude":36.78,"longitude":-119.79,"pop_2021":544510},{"teams":0,"label":"Tucson","city":"Tucson","latitude":32.15,"longitude":-110.87,"pop_2021":543242},{"teams":1,"label":"Sacramento","city":"Sacramento","latitude":38.57,"longitude":-121.47,"pop_2021":525041,"nba":"Sacramento Kings"},{"teams":0,"label":"Mesa","city":"Mesa","latitude":33.4,"longitude":-111.72,"pop_2021":509475},{"teams":2,"label":"Kansas City","city":"Kansas City","latitude":39.12,"longitude":-94.56,"pop_2021":508394,"mlb":"Kansas City Royals","nfl":"Kansas City Chiefs"},{"teams":3,"label":"Atlanta","city":"Atlanta","latitude":33.76,"longitude":-84.42,"pop_2021":496461,"mlb":"Atlanta Braves","nba":"Atlanta Hawks","nfl":"Atlanta Falcons"},{"teams":0,"label":"Omaha","city":"Omaha","latitude":41.26,"longitude":-96.05,"pop_2021":487300},{"teams":0,"label":"Colorado Springs","city":"Colorado Springs","latitude":38.87,"longitude":-104.76,"pop_2021":483956},{"teams":1,"label":"Raleigh","city":"Raleigh","latitude":35.83,"longitude":-78.64,"pop_2021":469124,"nhl":"Carolina Hurricanes"},{"teams":0,"label":"Virginia Beach","city":"Virginia Beach","latitude":36.78,"longitude":-76.03,"pop_2021":457672},{"teams":0,"label":"Long Beach","city":"Long Beach","latitude":33.78,"longitude":-118.17,"pop_2021":456062},{"teams":3,"label":"Miami","city":"Miami","latitude":25.78,"longitude":-80.21,"pop_2021":439890,"mlb":"Miami Marlins","nba":"Miami Heat","nfl":"Miami Dolphins"},{"teams":1,"label":"Oakland","city":"Oakland","latitude":37.77,"longitude":-122.23,"pop_2021":433823,"mlb":"Oakland Athletics"},{"teams":3,"label":"Minneapolis","city":"Minneapolis","latitude":44.96,"longitude":-93.27,"pop_2021":425336,"mlb":"Minnesota Twins","nba":"Minnesota Timberwolves","nfl":"Minnesota Vikings"},{"teams":0,"label":"Tulsa","city":"Tulsa","latitude":36.13,"longitude":-95.9,"pop_2021":411401},{"teams":0,"label":"Bakersfield","city":"Bakersfield","latitude":35.35,"longitude":-119.04,"pop_2021":407615},{"teams":0,"label":"Wichita","city":"Wichita","latitude":37.69,"longitude":-97.35,"pop_2021":395699},{"teams":0,"label":"Arlington","city":"Arlington","latitude":32.7,"longitude":-97.12,"pop_2021":392786},{"teams":0,"label":"Aurora","city":"Aurora","latitude":39.7,"longitude":-104.72,"pop_2021":389347},{"teams":3,"label":"Tampa","city":"Tampa","latitude":27.97,"longitude":-82.47,"pop_2021":387050,"mlb":"Tampa Bay Rays","nfl":"Tampa Bay Buccaneers","nhl":"Tampa Bay Lightning"},{"teams":2,"label":"New Orleans","city":"New Orleans","latitude":30.05,"longitude":-89.93,"pop_2021":376971,"nba":"New Orleans Pelicans","nfl":"New Orleans Saints"},{"teams":3,"label":"Cleveland","city":"Cleveland","latitude":41.48,"longitude":-81.68,"pop_2021":367991,"mlb":"Cleveland Indians","nba":"Cleveland Cavaliers","nfl":"Cleveland Browns"},{"teams":2,"label":"Anaheim","city":"Anaheim","latitude":33.86,"longitude":-117.76,"pop_2021":345940,"mlb":"Los Angeles Angels","nhl":"Anaheim Ducks"},{"teams":0,"label":"Honolulu","city":"Honolulu","latitude":21.32,"longitude":-157.85,"pop_2021":345510},{"teams":0,"label":"Henderson","city":"Henderson","latitude":36.01,"longitude":-115.04,"pop_2021":322178},{"teams":0,"label":"Stockton","city":"Stockton","latitude":37.98,"longitude":-121.31,"pop_2021":322120},{"teams":0,"label":"Lexington","city":"Lexington","latitude":38.04,"longitude":-84.46,"pop_2021":321793},{"teams":0,"label":"Corpus Christi","city":"Corpus Christi","latitude":27.75,"longitude":-97.17,"pop_2021":317773},{"teams":0,"label":"Riverside","city":"Riverside","latitude":33.94,"longitude":-117.39,"pop_2021":317261},{"teams":0,"label":"Santa Ana","city":"Santa Ana","latitude":33.74,"longitude":-117.88,"pop_2021":309441},{"teams":1,"label":"Orlando","city":"Orlando","latitude":28.41,"longitude":-81.25,"pop_2021":309154,"nba":"Orlando Magic"},{"teams":0,"label":"Irvine","city":"Irvine","latitude":33.68,"longitude":-117.77,"pop_2021":309031},{"teams":2,"label":"Cincinnati","city":"Cincinnati","latitude":39.14,"longitude":-84.51,"pop_2021":308935,"mlb":"Cincinnati Reds","nfl":"Cincinnati Bengals"},{"teams":1,"label":"Newark","city":"Newark","latitude":40.72,"longitude":-74.17,"pop_2021":307220,"nhl":"New Jersey Devils"},{"teams":1,"label":"Saint Paul","city":"Saint Paul","latitude":44.95,"longitude":-93.1,"pop_2021":307193,"nhl":"Minnesota Wild"},{"teams":3,"label":"Pittsburgh","city":"Pittsburgh","latitude":40.44,"longitude":-79.98,"pop_2021":300431,"mlb":"Pittsburgh Pirates","nfl":"Pittsburgh Steelers","nhl":"Pittsburgh Penguins"},{"teams":0,"label":"Greensboro","city":"Greensboro","latitude":36.1,"longitude":-79.83,"pop_2021":298263},{"teams":2,"label":"St. Louis","city":"St. Louis","latitude":38.64,"longitude":-90.24,"pop_2021":293310,"mlb":"St. Louis Cardinals","nhl":"St. Louis Blues"},{"teams":0,"label":"Lincoln","city":"Lincoln","latitude":40.81,"longitude":-96.68,"pop_2021":292657},{"teams":0,"label":"Plano","city":"Plano","latitude":33.05,"longitude":-96.75,"pop_2021":288253},{"teams":0,"label":"Anchorage","city":"Anchorage","latitude":61.17,"longitude":-149.28,"pop_2021":288121},{"teams":0,"label":"Durham","city":"Durham","latitude":35.98,"longitude":-78.9,"pop_2021":285527},{"teams":0,"label":"Jersey City","city":"Jersey City","latitude":40.71,"longitude":-74.06,"pop_2021":283927},{"teams":0,"label":"Chandler","city":"Chandler","latitude":33.28,"longitude":-111.85,"pop_2021":279458},{"teams":0,"label":"Chula Vista","city":"Chula Vista","latitude":32.63,"longitude":-117.02,"pop_2021":277220},{"teams":2,"label":"Buffalo","city":"Buffalo","latitude":42.89,"longitude":-78.86,"pop_2021":276807,"nfl":"Buffalo Bills","nhl":"Buffalo Sabres"},{"teams":0,"label":"North Las Vegas","city":"North Las Vegas","latitude":36.28,"longitude":-115.09,"pop_2021":274133},{"teams":0,"label":"Gilbert","city":"Gilbert","latitude":33.31,"longitude":-111.74,"pop_2021":273136},{"teams":0,"label":"Madison","city":"Madison","latitude":43.09,"longitude":-89.43,"pop_2021":269196},{"teams":0,"label":"Reno","city":"Reno","latitude":39.55,"longitude":-119.85,"pop_2021":268851},{"teams":0,"label":"Toledo","city":"Toledo","latitude":41.66,"longitude":-83.58,"pop_2021":268508},{"teams":0,"label":"Fort Wayne","city":"Fort Wayne","latitude":41.09,"longitude":-85.14,"pop_2021":265974},{"teams":0,"label":"Lubbock","city":"Lubbock","latitude":33.57,"longitude":-101.89,"pop_2021":260993},{"teams":0,"label":"St. Petersburg","city":"St. Petersburg","latitude":27.77,"longitude":-82.64,"pop_2021":258201},{"teams":0,"label":"Laredo","city":"Laredo","latitude":27.56,"longitude":-99.49,"pop_2021":256153},{"teams":0,"label":"Irving","city":"Irving","latitude":32.86,"longitude":-96.97,"pop_2021":254198},{"teams":0,"label":"Chesapeake","city":"Chesapeake","latitude":36.68,"longitude":-76.3,"pop_2021":251269},{"teams":0,"label":"Winston-Salem","city":"Winston-Salem","latitude":36.1,"longitude":-80.26,"pop_2021":250320},{"teams":0,"label":"Glendale","city":"Glendale","latitude":33.53,"longitude":-112.19,"pop_2021":249630},{"teams":0,"label":"Scottsdale","city":"Scottsdale","latitude":33.68,"longitude":-111.86,"pop_2021":242753},{"teams":0,"label":"Garland","city":"Garland","latitude":32.91,"longitude":-96.63,"pop_2021":242035},{"teams":0,"label":"Boise","city":"Boise","latitude":43.6,"longitude":-116.23,"pop_2021":237446},{"teams":0,"label":"Norfolk","city":"Norfolk","latitude":36.92,"longitude":-76.24,"pop_2021":235089},{"teams":0,"label":"Spokane","city":"Spokane","latitude":47.67,"longitude":-117.43,"pop_2021":229071},{"teams":0,"label":"Fremont","city":"Fremont","latitude":37.49,"longitude":-121.94,"pop_2021":227514},{"teams":0,"label":"Richmond","city":"Richmond","latitude":37.53,"longitude":-77.48,"pop_2021":226604},{"teams":0,"label":"Santa Clarita","city":"Santa Clarita","latitude":34.41,"longitude":-118.49,"pop_2021":224593},{"teams":0,"label":"San Bernardino","city":"San Bernardino","latitude":34.14,"longitude":-117.29,"pop_2021":222203},{"teams":0,"label":"Baton Rouge","city":"Baton Rouge","latitude":30.44,"longitude":-91.13,"pop_2021":222185},{"teams":0,"label":"Hialeah","city":"Hialeah","latitude":25.87,"longitude":-80.3,"pop_2021":220490},{"teams":0,"label":"Tacoma","city":"Tacoma","latitude":47.25,"longitude":-122.46,"pop_2021":219205},{"teams":0,"label":"Modesto","city":"Modesto","latitude":37.64,"longitude":-121,"pop_2021":218771},{"teams":0,"label":"Port St. Lucie","city":"Port St. Lucie","latitude":27.28,"longitude":-80.39,"pop_2021":217523},{"teams":0,"label":"Huntsville","city":"Huntsville","latitude":34.78,"longitude":-86.53,"pop_2021":216963},{"teams":0,"label":"Des Moines","city":"Des Moines","latitude":41.57,"longitude":-93.61,"pop_2021":212031},{"teams":0,"label":"Moreno Valley","city":"Moreno Valley","latitude":33.92,"longitude":-117.21,"pop_2021":211600},{"teams":0,"label":"Fontana","city":"Fontana","latitude":34.11,"longitude":-117.46,"pop_2021":210761},{"teams":0,"label":"Frisco","city":"Frisco","latitude":33.16,"longitude":-96.82,"pop_2021":210719},{"teams":0,"label":"Rochester","city":"Rochester","latitude":43.17,"longitude":-77.62,"pop_2021":210606},{"teams":0,"label":"Yonkers","city":"Yonkers","latitude":40.95,"longitude":-73.87,"pop_2021":209530},{"teams":0,"label":"Fayetteville","city":"Fayetteville","latitude":35.08,"longitude":-78.97,"pop_2021":208778},{"teams":0,"label":"Worcester","city":"Worcester","latitude":42.27,"longitude":-71.81,"pop_2021":205918},{"teams":0,"label":"Columbus","city":"Columbus","latitude":32.51,"longitude":-84.87,"pop_2021":205617},{"teams":0,"label":"Cape Coral","city":"Cape Coral","latitude":26.65,"longitude":-81.99,"pop_2021":204510},{"teams":0,"label":"McKinney","city":"McKinney","latitude":33.2,"longitude":-96.66,"pop_2021":202690},{"teams":0,"label":"Little Rock","city":"Little Rock","latitude":34.72,"longitude":-92.36,"pop_2021":201998},{"teams":0,"label":"Oxnard","city":"Oxnard","latitude":34.2,"longitude":-119.21,"pop_2021":201879},{"teams":0,"label":"Amarillo","city":"Amarillo","latitude":35.2,"longitude":-101.83,"pop_2021":201234},{"teams":0,"label":"Augusta","city":"Augusta","latitude":33.37,"longitude":-82.07,"pop_2021":201196},{"teams":1,"label":"Salt Lake City","city":"Salt Lake City","latitude":40.78,"longitude":-111.93,"pop_2021":200478,"nba":"Utah Jazz"},{"teams":0,"label":"Montgomery","city":"Montgomery","latitude":32.35,"longitude":-86.27,"pop_2021":198665},{"teams":0,"label":"Birmingham","city":"Birmingham","latitude":33.53,"longitude":-86.8,"pop_2021":197575},{"teams":0,"label":"Grand Rapids","city":"Grand Rapids","latitude":42.96,"longitude":-85.66,"pop_2021":197416},{"teams":0,"label":"Grand Prairie","city":"Grand Prairie","latitude":32.69,"longitude":-97.02,"pop_2021":197347},{"teams":0,"label":"Overland Park","city":"Overland Park","latitude":38.89,"longitude":-94.69,"pop_2021":197106},{"teams":0,"label":"Tallahassee","city":"Tallahassee","latitude":30.46,"longitude":-84.25,"pop_2021":197102},{"teams":0,"label":"Huntington Beach","city":"Huntington Beach","latitude":33.7,"longitude":-118,"pop_2021":196652},{"teams":0,"label":"Sioux Falls","city":"Sioux Falls","latitude":43.54,"longitude":-96.73,"pop_2021":196528},{"teams":0,"label":"Peoria","city":"Peoria","latitude":33.79,"longitude":-112.31,"pop_2021":194917},{"teams":0,"label":"Knoxville","city":"Knoxville","latitude":35.97,"longitude":-83.95,"pop_2021":192648},{"teams":0,"label":"Glendale","city":"Glendale","latitude":34.18,"longitude":-118.25,"pop_2021":192366},{"teams":0,"label":"Vancouver","city":"Vancouver","latitude":45.64,"longitude":-122.6,"pop_2021":192169},{"teams":0,"label":"Providence","city":"Providence","latitude":41.82,"longitude":-71.42,"pop_2021":189692},{"teams":0,"label":"Akron","city":"Akron","latitude":41.08,"longitude":-81.52,"pop_2021":189347},{"teams":0,"label":"Brownsville","city":"Brownsville","latitude":26,"longitude":-97.45,"pop_2021":187831},{"teams":0,"label":"Mobile","city":"Mobile","latitude":30.67,"longitude":-88.1,"pop_2021":184952},{"teams":0,"label":"Newport News","city":"Newport News","latitude":37.08,"longitude":-76.52,"pop_2021":184587},{"teams":0,"label":"Tempe","city":"Tempe","latitude":33.39,"longitude":-111.93,"pop_2021":184118},{"teams":0,"label":"Shreveport","city":"Shreveport","latitude":32.47,"longitude":-93.79,"pop_2021":184021},{"teams":0,"label":"Chattanooga","city":"Chattanooga","latitude":35.07,"longitude":-85.25,"pop_2021":182113},{"teams":1,"label":"Fort Lauderdale","city":"Fort Lauderdale*","latitude":26.14,"longitude":-80.15,"pop_2021":181668,"nhl":"Florida Panthers"},{"teams":0,"label":"Aurora","city":"Aurora","latitude":41.76,"longitude":-88.29,"pop_2021":179266},{"teams":0,"label":"Elk Grove","city":"Elk Grove","latitude":38.41,"longitude":-121.38,"pop_2021":178997},{"teams":0,"label":"Ontario","city":"Ontario","latitude":34.04,"longitude":-117.6,"pop_2021":177963},{"teams":0,"label":"Salem","city":"Salem","latitude":44.92,"longitude":-123.02,"pop_2021":177723},{"teams":0,"label":"Cary","city":"Cary","latitude":35.78,"longitude":-78.82,"pop_2021":176987},{"teams":0,"label":"Santa Rosa","city":"Santa Rosa","latitude":38.45,"longitude":-122.71,"pop_2021":176938},{"teams":0,"label":"Rancho Cucamonga","city":"Rancho Cucamonga","latitude":34.12,"longitude":-117.56,"pop_2021":175142},{"teams":0,"label":"Eugene","city":"Eugene","latitude":44.06,"longitude":-123.12,"pop_2021":175096},{"teams":0,"label":"Oceanside","city":"Oceanside","latitude":33.22,"longitude":-117.31,"pop_2021":172982},{"teams":0,"label":"Clarksville","city":"Clarksville","latitude":36.57,"longitude":-87.35,"pop_2021":170957},{"teams":0,"label":"Garden Grove","city":"Garden Grove","latitude":33.78,"longitude":-117.96,"pop_2021":170488},{"teams":0,"label":"Lancaster","city":"Lancaster","latitude":34.69,"longitude":-118.18,"pop_2021":170150},{"teams":0,"label":"Springfield","city":"Springfield","latitude":37.19,"longitude":-93.29,"pop_2021":169724},{"teams":0,"label":"Pembroke Pines","city":"Pembroke Pines","latitude":26.01,"longitude":-80.34,"pop_2021":169391},{"teams":0,"label":"Fort Collins","city":"Fort Collins","latitude":40.55,"longitude":-105.06,"pop_2021":168538},{"teams":0,"label":"Palmdale","city":"Palmdale","latitude":34.59,"longitude":-118.11,"pop_2021":165761},{"teams":0,"label":"Salinas","city":"Salinas","latitude":36.69,"longitude":-121.63,"pop_2021":162791},{"teams":0,"label":"Hayward","city":"Hayward","latitude":37.63,"longitude":-122.1,"pop_2021":159827},{"teams":0,"label":"Corona","city":"Corona","latitude":33.86,"longitude":-117.57,"pop_2021":159743},{"teams":0,"label":"Paterson","city":"Paterson","latitude":40.91,"longitude":-74.16,"pop_2021":157794},{"teams":0,"label":"Murfreesboro","city":"Murfreesboro","latitude":35.85,"longitude":-86.42,"pop_2021":157519},{"teams":0,"label":"Macon","city":"Macon","latitude":32.81,"longitude":-83.69,"pop_2021":156762},{"teams":0,"label":"Lakewood","city":"Lakewood","latitude":39.7,"longitude":-105.12,"pop_2021":156605},{"teams":0,"label":"Killeen","city":"Killeen","latitude":31.08,"longitude":-97.73,"pop_2021":156261},{"teams":0,"label":"Springfield","city":"Springfield","latitude":42.12,"longitude":-72.54,"pop_2021":154789},{"teams":0,"label":"Alexandria","city":"Alexandria","latitude":38.82,"longitude":-77.08,"pop_2021":154706},{"teams":0,"label":"Kansas City","city":"Kansas City","latitude":39.12,"longitude":-94.74,"pop_2021":154545},{"teams":0,"label":"Sunnyvale","city":"Sunnyvale","latitude":37.39,"longitude":-122.03,"pop_2021":152258},{"teams":0,"label":"Hollywood","city":"Hollywood","latitude":26.03,"longitude":-80.16,"pop_2021":152131},{"teams":0,"label":"Roseville","city":"Roseville","latitude":38.77,"longitude":-121.32,"pop_2021":151901},{"teams":0,"label":"Charleston","city":"Charleston","latitude":32.83,"longitude":-79.97,"pop_2021":151612},{"teams":0,"label":"Escondido","city":"Escondido","latitude":33.13,"longitude":-117.07,"pop_2021":150665},{"teams":0,"label":"Joliet","city":"Joliet","latitude":41.52,"longitude":-88.15,"pop_2021":150372},{"teams":0,"label":"Jackson","city":"Jackson","latitude":32.32,"longitude":-90.21,"pop_2021":149761},{"teams":0,"label":"Bellevue","city":"Bellevue","latitude":47.6,"longitude":-122.16,"pop_2021":149440},{"teams":0,"label":"Surprise","city":"Surprise","latitude":33.67,"longitude":-112.45,"pop_2021":149191},{"teams":0,"label":"Naperville","city":"Naperville","latitude":41.75,"longitude":-88.16,"pop_2021":149104},{"teams":0,"label":"Pasadena","city":"Pasadena","latitude":29.65,"longitude":-95.15,"pop_2021":148626},{"teams":0,"label":"Pomona","city":"Pomona","latitude":34.06,"longitude":-117.76,"pop_2021":148338},{"teams":0,"label":"Bridgeport","city":"Bridgeport","latitude":41.19,"longitude":-73.2,"pop_2021":148333},{"teams":0,"label":"Denton","city":"Denton","latitude":33.22,"longitude":-97.14,"pop_2021":148146},{"teams":0,"label":"Rockford","city":"Rockford","latitude":42.26,"longitude":-89.06,"pop_2021":147711},{"teams":0,"label":"Mesquite","city":"Mesquite","latitude":32.76,"longitude":-96.59,"pop_2021":147691},{"teams":0,"label":"Savannah","city":"Savannah","latitude":32,"longitude":-81.15,"pop_2021":147088},{"teams":0,"label":"Syracuse","city":"Syracuse","latitude":43.04,"longitude":-76.14,"pop_2021":146103},{"teams":0,"label":"McAllen","city":"McAllen","latitude":26.22,"longitude":-98.25,"pop_2021":143920},{"teams":0,"label":"Torrance","city":"Torrance","latitude":33.83,"longitude":-118.36,"pop_2021":143600},{"teams":0,"label":"Olathe","city":"Olathe","latitude":38.88,"longitude":-94.82,"pop_2021":143014},{"teams":0,"label":"Visalia","city":"Visalia","latitude":36.33,"longitude":-119.33,"pop_2021":142978},{"teams":0,"label":"Thornton","city":"Thornton","latitude":39.92,"longitude":-104.94,"pop_2021":142610},{"teams":0,"label":"Fullerton","city":"Fullerton","latitude":33.89,"longitude":-117.93,"pop_2021":141874},{"teams":0,"label":"Gainesville","city":"Gainesville","latitude":29.68,"longitude":-82.35,"pop_2021":140398},{"teams":0,"label":"Waco","city":"Waco","latitude":31.56,"longitude":-97.19,"pop_2021":139594},{"teams":0,"label":"West Valley City","city":"West Valley City","latitude":40.69,"longitude":-112.01,"pop_2021":139110},{"teams":0,"label":"Warren","city":"Warren","latitude":42.49,"longitude":-83.03,"pop_2021":138130},{"teams":0,"label":"Lakewood","city":"Lakewood","latitude":40.08,"longitude":-74.2,"pop_2021":138070},{"teams":0,"label":"Hampton","city":"Hampton","latitude":37.05,"longitude":-76.3,"pop_2021":137746},{"teams":0,"label":"Dayton","city":"Dayton","latitude":39.78,"longitude":-84.2,"pop_2021":137571},{"teams":0,"label":"Columbia","city":"Columbia","latitude":34.04,"longitude":-80.91,"pop_2021":137541},{"teams":0,"label":"Orange","city":"Orange","latitude":33.79,"longitude":-117.86,"pop_2021":137264},{"teams":0,"label":"Cedar Rapids","city":"Cedar Rapids","latitude":41.97,"longitude":-91.68,"pop_2021":136467},{"teams":0,"label":"Stamford","city":"Stamford","latitude":41.08,"longitude":-73.55,"pop_2021":136309},{"teams":0,"label":"Victorville","city":"Victorville","latitude":34.53,"longitude":-117.35,"pop_2021":135950},{"teams":0,"label":"Pasadena","city":"Pasadena","latitude":34.16,"longitude":-118.14,"pop_2021":135732},{"teams":0,"label":"Elizabeth","city":"Elizabeth","latitude":40.67,"longitude":-74.19,"pop_2021":135407},{"teams":0,"label":"New Haven","city":"New Haven","latitude":41.31,"longitude":-72.92,"pop_2021":135081},{"teams":0,"label":"Miramar","city":"Miramar","latitude":25.97,"longitude":-80.34,"pop_2021":135077},{"teams":0,"label":"Kent","city":"Kent","latitude":47.39,"longitude":-122.21,"pop_2021":134835},{"teams":0,"label":"Sterling Heights","city":"Sterling Heights","latitude":42.58,"longitude":-83.03,"pop_2021":133269},{"teams":0,"label":"Carrollton","city":"Carrollton","latitude":32.99,"longitude":-96.9,"pop_2021":133251},{"teams":0,"label":"Coral Springs","city":"Coral Springs","latitude":26.27,"longitude":-80.26,"pop_2021":132822},{"teams":0,"label":"Midland","city":"Midland","latitude":32.02,"longitude":-102.11,"pop_2021":131325},{"teams":0,"label":"Norman","city":"Norman","latitude":35.24,"longitude":-97.35,"pop_2021":128097},{"teams":0,"label":"Athens","city":"Athens","latitude":33.95,"longitude":-83.37,"pop_2021":127358},{"teams":0,"label":"Santa Clara","city":"Santa Clara","latitude":37.36,"longitude":-121.97,"pop_2021":127151},{"teams":0,"label":"Columbia","city":"Columbia","latitude":38.95,"longitude":-92.33,"pop_2021":126853},{"teams":0,"label":"Fargo","city":"Fargo","latitude":46.86,"longitude":-96.83,"pop_2021":126748},{"teams":0,"label":"Pearland","city":"Pearland","latitude":29.56,"longitude":-95.32,"pop_2021":125990},{"teams":0,"label":"Simi Valley","city":"Simi Valley","latitude":34.27,"longitude":-118.75,"pop_2021":125975},{"teams":0,"label":"Meridian","city":"Meridian","latitude":43.61,"longitude":-116.4,"pop_2021":125963},{"teams":0,"label":"Topeka","city":"Topeka","latitude":39.03,"longitude":-95.69,"pop_2021":125963},{"teams":0,"label":"Allentown","city":"Allentown","latitude":40.59,"longitude":-75.48,"pop_2021":125944},{"teams":0,"label":"Thousand Oaks","city":"Thousand Oaks","latitude":34.19,"longitude":-118.87,"pop_2021":125754},{"teams":0,"label":"Abilene","city":"Abilene","latitude":32.45,"longitude":-99.74,"pop_2021":125070},{"teams":0,"label":"Vallejo","city":"Vallejo","latitude":38.11,"longitude":-122.26,"pop_2021":124886},{"teams":0,"label":"Concord","city":"Concord","latitude":37.97,"longitude":-122,"pop_2021":124074},{"teams":0,"label":"Round Rock","city":"Round Rock","latitude":30.53,"longitude":-97.66,"pop_2021":123876},{"teams":0,"label":"Arvada","city":"Arvada","latitude":39.83,"longitude":-105.15,"pop_2021":123436},{"teams":0,"label":"Clovis","city":"Clovis","latitude":36.83,"longitude":-119.68,"pop_2021":122989},{"teams":0,"label":"Palm Bay","city":"Palm Bay","latitude":27.96,"longitude":-80.66,"pop_2021":122942},{"teams":0,"label":"Independence","city":"Independence","latitude":39.09,"longitude":-94.35,"pop_2021":122088},{"teams":0,"label":"Lafayette","city":"Lafayette","latitude":30.21,"longitude":-92.03,"pop_2021":121771},{"teams":0,"label":"Ann Arbor","city":"Ann Arbor","latitude":42.28,"longitude":-83.73,"pop_2021":121536},{"teams":0,"label":"Rochester","city":"Rochester","latitude":44.02,"longitude":-92.48,"pop_2021":121465},{"teams":0,"label":"Hartford","city":"Hartford","latitude":41.77,"longitude":-72.68,"pop_2021":120576},{"teams":0,"label":"College Station","city":"College Station","latitude":30.59,"longitude":-96.3,"pop_2021":120019},{"teams":0,"label":"Fairfield","city":"Fairfield","latitude":38.26,"longitude":-122.03,"pop_2021":119705},{"teams":0,"label":"Wilmington","city":"Wilmington","latitude":34.21,"longitude":-77.89,"pop_2021":117643},{"teams":0,"label":"North Charleston","city":"North Charleston","latitude":32.92,"longitude":-80.07,"pop_2021":117472},{"teams":0,"label":"Billings","city":"Billings","latitude":45.79,"longitude":-108.55,"pop_2021":117445},{"teams":0,"label":"West Palm Beach","city":"West Palm Beach","latitude":26.75,"longitude":-80.13,"pop_2021":117286},{"teams":0,"label":"Berkeley","city":"Berkeley","latitude":37.87,"longitude":-122.3,"pop_2021":117145},{"teams":0,"label":"Cambridge","city":"Cambridge","latitude":42.38,"longitude":-71.12,"pop_2021":117090},{"teams":0,"label":"Clearwater","city":"Clearwater","latitude":27.98,"longitude":-82.77,"pop_2021":116674},{"teams":0,"label":"West Jordan","city":"West Jordan","latitude":40.6,"longitude":-112,"pop_2021":116541},{"teams":0,"label":"Evansville","city":"Evansville","latitude":37.99,"longitude":-87.53,"pop_2021":116486},{"teams":0,"label":"Richardson","city":"Richardson","latitude":32.97,"longitude":-96.71,"pop_2021":116382},{"teams":0,"label":"Broken Arrow","city":"Broken Arrow","latitude":36.04,"longitude":-95.78,"pop_2021":116330},{"teams":0,"label":"Richmond","city":"Richmond","latitude":37.95,"longitude":-122.36,"pop_2021":115639},{"teams":0,"label":"League City","city":"League City","latitude":29.49,"longitude":-95.11,"pop_2021":115595},{"teams":0,"label":"Manchester","city":"Manchester","latitude":42.98,"longitude":-71.44,"pop_2021":115462},{"teams":0,"label":"Lakeland","city":"Lakeland","latitude":28.06,"longitude":-81.95,"pop_2021":115425},{"teams":0,"label":"Carlsbad","city":"Carlsbad","latitude":33.13,"longitude":-117.28,"pop_2021":115302},{"teams":0,"label":"Antioch","city":"Antioch","latitude":37.98,"longitude":-121.8,"pop_2021":114794},{"teams":0,"label":"Westminster","city":"Westminster","latitude":39.88,"longitude":-105.06,"pop_2021":114561},{"teams":0,"label":"High Point","city":"High Point","latitude":35.99,"longitude":-79.99,"pop_2021":114086},{"teams":0,"label":"Provo","city":"Provo","latitude":40.25,"longitude":-111.65,"pop_2021":114084},{"teams":0,"label":"Lowell","city":"Lowell","latitude":42.64,"longitude":-71.32,"pop_2021":113994},{"teams":0,"label":"Elgin","city":"Elgin","latitude":42.04,"longitude":-88.33,"pop_2021":113911},{"teams":0,"label":"Waterbury","city":"Waterbury","latitude":41.56,"longitude":-73.04,"pop_2021":113811},{"teams":0,"label":"Springfield","city":"Springfield","latitude":39.79,"longitude":-89.64,"pop_2021":113394},{"teams":0,"label":"Gresham","city":"Gresham","latitude":45.5,"longitude":-122.44,"pop_2021":113103},{"teams":0,"label":"Murrieta","city":"Murrieta","latitude":33.57,"longitude":-117.19,"pop_2021":112991},{"teams":0,"label":"Lewisville","city":"Lewisville","latitude":33.05,"longitude":-96.98,"pop_2021":112944},{"teams":0,"label":"Las Cruces","city":"Las Cruces","latitude":32.33,"longitude":-106.79,"pop_2021":112914},{"teams":0,"label":"Lansing","city":"Lansing","latitude":42.71,"longitude":-84.56,"pop_2021":112684},{"teams":0,"label":"Beaumont","city":"Beaumont","latitude":30.08,"longitude":-94.15,"pop_2021":112556},{"teams":0,"label":"Odessa","city":"Odessa","latitude":31.88,"longitude":-102.35,"pop_2021":112483},{"teams":0,"label":"Pueblo","city":"Pueblo","latitude":38.27,"longitude":-104.61,"pop_2021":112368},{"teams":0,"label":"Peoria","city":"Peoria","latitude":40.75,"longitude":-89.62,"pop_2021":111666},{"teams":0,"label":"Downey","city":"Downey","latitude":33.94,"longitude":-118.13,"pop_2021":111645},{"teams":0,"label":"Pompano Beach","city":"Pompano Beach","latitude":26.24,"longitude":-80.13,"pop_2021":111348},{"teams":0,"label":"Miami Gardens","city":"Miami Gardens","latitude":25.95,"longitude":-80.24,"pop_2021":110867},{"teams":0,"label":"Temecula","city":"Temecula","latitude":33.49,"longitude":-117.13,"pop_2021":110846},{"teams":0,"label":"Everett","city":"Everett","latitude":47.95,"longitude":-122.19,"pop_2021":110812},{"teams":0,"label":"Costa Mesa","city":"Costa Mesa","latitude":33.67,"longitude":-117.91,"pop_2021":110750},{"teams":0,"label":"Ventura","city":"Ventura","latitude":34.27,"longitude":-119.25,"pop_2021":109925},{"teams":0,"label":"Sparks","city":"Sparks","latitude":39.57,"longitude":-119.72,"pop_2021":109796},{"teams":0,"label":"Santa Maria","city":"Santa Maria","latitude":34.93,"longitude":-120.44,"pop_2021":109711},{"teams":0,"label":"Sugar Land","city":"Sugar Land","latitude":29.59,"longitude":-95.63,"pop_2021":109373},{"teams":0,"label":"Greeley","city":"Greeley","latitude":40.41,"longitude":-104.77,"pop_2021":109323},{"teams":0,"label":"South Fulton","city":"South Fulton","latitude":33.66,"longitude":-84.57,"pop_2021":108575},{"teams":0,"label":"Dearborn","city":"Dearborn","latitude":42.31,"longitude":-83.21,"pop_2021":108420},{"teams":0,"label":"Concord","city":"Concord","latitude":35.39,"longitude":-80.64,"pop_2021":107697},{"teams":0,"label":"Edison","city":"Edison","latitude":40.5,"longitude":-74.35,"pop_2021":107626},{"teams":0,"label":"Tyler","city":"Tyler","latitude":32.32,"longitude":-95.31,"pop_2021":107192},{"teams":0,"label":"Sandy Springs","city":"Sandy Springs","latitude":33.93,"longitude":-84.37,"pop_2021":107180},{"teams":0,"label":"West Covina","city":"West Covina","latitude":34.06,"longitude":-117.91,"pop_2021":107017},{"teams":1,"label":"Green Bay","city":"Green Bay","latitude":44.52,"longitude":-87.99,"pop_2021":107015,"nfl":"Green Bay Packers"},{"teams":0,"label":"Centennial","city":"Centennial","latitude":39.59,"longitude":-104.87,"pop_2021":106966},{"teams":0,"label":"Jurupa Valley","city":"Jurupa Valley","latitude":34,"longitude":-117.47,"pop_2021":106941},{"teams":0,"label":"El Monte","city":"El Monte","latitude":34.07,"longitude":-118.03,"pop_2021":106907},{"teams":0,"label":"Allen","city":"Allen","latitude":33.11,"longitude":-96.67,"pop_2021":106874},{"teams":0,"label":"Hillsboro","city":"Hillsboro","latitude":45.53,"longitude":-122.94,"pop_2021":106633},{"teams":0,"label":"Menifee","city":"Menifee","latitude":33.69,"longitude":-117.18,"pop_2021":106401},{"teams":0,"label":"Nampa","city":"Nampa","latitude":43.58,"longitude":-116.56,"pop_2021":106186},{"teams":0,"label":"Spokane Valley","city":"Spokane Valley","latitude":47.66,"longitude":-117.23,"pop_2021":105905},{"teams":0,"label":"Rio Rancho","city":"Rio Rancho","latitude":35.29,"longitude":-106.7,"pop_2021":105834},{"teams":0,"label":"Brockton","city":"Brockton","latitude":42.08,"longitude":-71.02,"pop_2021":105446},{"teams":0,"label":"El Cajon","city":"El Cajon","latitude":32.8,"longitude":-116.96,"pop_2021":105432},{"teams":0,"label":"Burbank","city":"Burbank","latitude":34.19,"longitude":-118.33,"pop_2021":105401},{"teams":0,"label":"Inglewood","city":"Inglewood","latitude":33.96,"longitude":-118.34,"pop_2021":105181},{"teams":0,"label":"Renton","city":"Renton","latitude":47.48,"longitude":-122.19,"pop_2021":105179},{"teams":0,"label":"Davie","city":"Davie","latitude":26.08,"longitude":-80.28,"pop_2021":104882},{"teams":0,"label":"Rialto","city":"Rialto","latitude":34.12,"longitude":-117.39,"pop_2021":104394},{"teams":0,"label":"Boulder","city":"Boulder","latitude":40.02,"longitude":-105.25,"pop_2021":104175},{"teams":0,"label":"South Bend","city":"South Bend","latitude":41.68,"longitude":-86.27,"pop_2021":103353},{"teams":0,"label":"Woodbridge","city":"Woodbridge","latitude":40.56,"longitude":-74.29,"pop_2021":103212},{"teams":0,"label":"Vacaville","city":"Vacaville","latitude":38.36,"longitude":-121.97,"pop_2021":103078},{"teams":0,"label":"Wichita Falls","city":"Wichita Falls","latitude":33.91,"longitude":-98.53,"pop_2021":102988},{"teams":0,"label":"Lee's Summit","city":"Lee's Summit","latitude":38.92,"longitude":-94.38,"pop_2021":102781},{"teams":0,"label":"Edinburg","city":"Edinburg","latitude":26.32,"longitude":-98.16,"pop_2021":102483},{"teams":0,"label":"Chico","city":"Chico","latitude":39.76,"longitude":-121.82,"pop_2021":102338},{"teams":0,"label":"San Mateo","city":"San Mateo","latitude":37.56,"longitude":-122.31,"pop_2021":102200},{"teams":0,"label":"Bend","city":"Bend","latitude":44.06,"longitude":-121.31,"pop_2021":102059},{"teams":0,"label":"Goodyear","city":"Goodyear","latitude":33.25,"longitude":-112.37,"pop_2021":101733},{"teams":0,"label":"Buckeye","city":"Buckeye","latitude":33.43,"longitude":-112.64,"pop_2021":101315},{"teams":0,"label":"Daly City","city":"Daly City","latitude":37.69,"longitude":-122.47,"pop_2021":101243},{"teams":0,"label":"Fishers","city":"Fishers","latitude":39.96,"longitude":-85.97,"pop_2021":101171},{"teams":0,"label":"Quincy","city":"Quincy","latitude":42.26,"longitude":-71.01,"pop_2021":101119},{"teams":0,"label":"Davenport","city":"Davenport","latitude":41.56,"longitude":-90.6,"pop_2021":101009},{"teams":0,"label":"Hesperia","city":"Hesperia","latitude":34.4,"longitude":-117.32,"pop_2021":100971},{"teams":0,"label":"New Bedford","city":"New Bedford","latitude":41.66,"longitude":-70.94,"pop_2021":100941},{"teams":0,"label":"Lynn","city":"Lynn","latitude":42.47,"longitude":-70.96,"pop_2021":100843},{"teams":0,"label":"Carmel","city":"Carmel","latitude":39.97,"longitude":-86.15,"pop_2021":100777},{"teams":0,"label":"Longmont","city":"Longmont","latitude":40.17,"longitude":-105.1,"pop_2021":100758},{"teams":0,"label":"Tuscaloosa","city":"Tuscaloosa","latitude":33.23,"longitude":-87.53,"pop_2021":100618},{"teams":0,"label":"Norwalk","city":"Norwalk","latitude":33.91,"longitude":-118.08,"pop_2021":100373}]